[
    {
        "state":  "AL",
        "name":  "Autauga County",
        "fips":  "01001",
        "latitude":  32.532237,
        "longitude":  -86.64644
    },
    {
        "state":  "AL",
        "name":  "Baldwin County",
        "fips":  "01003",
        "latitude":  30.659218,
        "longitude":  -87.746067
    },
    {
        "state":  "AL",
        "name":  "Barbour County",
        "fips":  "01005",
        "latitude":  31.870253,
        "longitude":  -85.405104
    },
    {
        "state":  "AL",
        "name":  "Bibb County",
        "fips":  "01007",
        "latitude":  33.015893,
        "longitude":  -87.127148
    },
    {
        "state":  "AL",
        "name":  "Blount County",
        "fips":  "01009",
        "latitude":  33.977358,
        "longitude":  -86.56644
    },
    {
        "state":  "AL",
        "name":  "Bullock County",
        "fips":  "01011",
        "latitude":  32.101759,
        "longitude":  -85.717261
    },
    {
        "state":  "AL",
        "name":  "Butler County",
        "fips":  "01013",
        "latitude":  31.751667,
        "longitude":  -86.681969
    },
    {
        "state":  "AL",
        "name":  "Calhoun County",
        "fips":  "01015",
        "latitude":  33.770516,
        "longitude":  -85.827909
    },
    {
        "state":  "AL",
        "name":  "Chambers County",
        "fips":  "01017",
        "latitude":  32.915504,
        "longitude":  -85.394032
    },
    {
        "state":  "AL",
        "name":  "Cherokee County",
        "fips":  "01019",
        "latitude":  34.069515,
        "longitude":  -85.654242
    },
    {
        "state":  "AL",
        "name":  "Chilton County",
        "fips":  "01021",
        "latitude":  32.854051,
        "longitude":  -86.726607
    },
    {
        "state":  "AL",
        "name":  "Choctaw County",
        "fips":  "01023",
        "latitude":  31.990954,
        "longitude":  -88.248889
    },
    {
        "state":  "AL",
        "name":  "Clarke County",
        "fips":  "01025",
        "latitude":  31.685521,
        "longitude":  -87.818624
    },
    {
        "state":  "AL",
        "name":  "Clay County",
        "fips":  "01027",
        "latitude":  33.2704,
        "longitude":  -85.863525
    },
    {
        "state":  "AL",
        "name":  "Cleburne County",
        "fips":  "01029",
        "latitude":  33.671964,
        "longitude":  -85.516126
    },
    {
        "state":  "AL",
        "name":  "Coffee County",
        "fips":  "01031",
        "latitude":  31.402258,
        "longitude":  -85.989602
    },
    {
        "state":  "AL",
        "name":  "Colbert County",
        "fips":  "01033",
        "latitude":  34.703112,
        "longitude":  -87.801457
    },
    {
        "state":  "AL",
        "name":  "Conecuh County",
        "fips":  "01035",
        "latitude":  31.430926,
        "longitude":  -86.988722
    },
    {
        "state":  "AL",
        "name":  "Coosa County",
        "fips":  "01037",
        "latitude":  32.931445,
        "longitude":  -86.243482
    },
    {
        "state":  "AL",
        "name":  "Covington County",
        "fips":  "01039",
        "latitude":  31.243987,
        "longitude":  -86.448721
    },
    {
        "state":  "AL",
        "name":  "Crenshaw County",
        "fips":  "01041",
        "latitude":  31.730311,
        "longitude":  -86.320038
    },
    {
        "state":  "AL",
        "name":  "Cullman County",
        "fips":  "01043",
        "latitude":  34.131923,
        "longitude":  -86.869267
    },
    {
        "state":  "AL",
        "name":  "Dale County",
        "fips":  "01045",
        "latitude":  31.430654,
        "longitude":  -85.609476
    },
    {
        "state":  "AL",
        "name":  "Dallas County",
        "fips":  "01047",
        "latitude":  32.333526,
        "longitude":  -87.11436
    },
    {
        "state":  "AL",
        "name":  "DeKalb County",
        "fips":  "01049",
        "latitude":  34.460915,
        "longitude":  -85.804021
    },
    {
        "state":  "AL",
        "name":  "Elmore County",
        "fips":  "01051",
        "latitude":  32.597229,
        "longitude":  -86.142735
    },
    {
        "state":  "AL",
        "name":  "Escambia County",
        "fips":  "01053",
        "latitude":  31.122287,
        "longitude":  -87.16841
    },
    {
        "state":  "AL",
        "name":  "Etowah County",
        "fips":  "01055",
        "latitude":  34.047641,
        "longitude":  -86.034263
    },
    {
        "state":  "AL",
        "name":  "Fayette County",
        "fips":  "01057",
        "latitude":  33.716157,
        "longitude":  -87.764292
    },
    {
        "state":  "AL",
        "name":  "Franklin County",
        "fips":  "01059",
        "latitude":  34.441989,
        "longitude":  -87.842814
    },
    {
        "state":  "AL",
        "name":  "Geneva County",
        "fips":  "01061",
        "latitude":  31.092382,
        "longitude":  -85.821022
    },
    {
        "state":  "AL",
        "name":  "Greene County",
        "fips":  "01063",
        "latitude":  32.844497,
        "longitude":  -87.9642
    },
    {
        "state":  "AL",
        "name":  "Hale County",
        "fips":  "01065",
        "latitude":  32.752796,
        "longitude":  -87.623061
    },
    {
        "state":  "AL",
        "name":  "Henry County",
        "fips":  "01067",
        "latitude":  31.516978,
        "longitude":  -85.239971
    },
    {
        "state":  "AL",
        "name":  "Houston County",
        "fips":  "01069",
        "latitude":  31.158183,
        "longitude":  -85.296411
    },
    {
        "state":  "AL",
        "name":  "Jackson County",
        "fips":  "01071",
        "latitude":  34.764114,
        "longitude":  -85.980056
    },
    {
        "state":  "AL",
        "name":  "Jefferson County",
        "fips":  "01073",
        "latitude":  33.553444,
        "longitude":  -86.896536
    },
    {
        "state":  "AL",
        "name":  "Lamar County",
        "fips":  "01075",
        "latitude":  33.787085,
        "longitude":  -88.087431
    },
    {
        "state":  "AL",
        "name":  "Lauderdale County",
        "fips":  "01077",
        "latitude":  34.904168,
        "longitude":  -87.651108
    },
    {
        "state":  "AL",
        "name":  "Lawrence County",
        "fips":  "01079",
        "latitude":  34.529776,
        "longitude":  -87.321865
    },
    {
        "state":  "AL",
        "name":  "Lee County",
        "fips":  "01081",
        "latitude":  32.604064,
        "longitude":  -85.353048
    },
    {
        "state":  "AL",
        "name":  "Limestone County",
        "fips":  "01083",
        "latitude":  34.810239,
        "longitude":  -86.981399
    },
    {
        "state":  "AL",
        "name":  "Lowndes County",
        "fips":  "01085",
        "latitude":  32.147888,
        "longitude":  -86.650586
    },
    {
        "state":  "AL",
        "name":  "Macon County",
        "fips":  "01087",
        "latitude":  32.387027,
        "longitude":  -85.692887
    },
    {
        "state":  "AL",
        "name":  "Madison County",
        "fips":  "01089",
        "latitude":  34.764238,
        "longitude":  -86.55108
    },
    {
        "state":  "AL",
        "name":  "Marengo County",
        "fips":  "01091",
        "latitude":  32.247591,
        "longitude":  -87.791091
    },
    {
        "state":  "AL",
        "name":  "Marion County",
        "fips":  "01093",
        "latitude":  34.138219,
        "longitude":  -87.881551
    },
    {
        "state":  "AL",
        "name":  "Marshall County",
        "fips":  "01095",
        "latitude":  34.309564,
        "longitude":  -86.321668
    },
    {
        "state":  "AL",
        "name":  "Mobile County",
        "fips":  "01097",
        "latitude":  30.684572,
        "longitude":  -88.196568
    },
    {
        "state":  "AL",
        "name":  "Monroe County",
        "fips":  "01099",
        "latitude":  31.580353,
        "longitude":  -87.383342
    },
    {
        "state":  "AL",
        "name":  "Montgomery County",
        "fips":  "01101",
        "latitude":  32.202881,
        "longitude":  -86.204461
    },
    {
        "state":  "AL",
        "name":  "Morgan County",
        "fips":  "01103",
        "latitude":  34.454484,
        "longitude":  -86.846402
    },
    {
        "state":  "AL",
        "name":  "Perry County",
        "fips":  "01105",
        "latitude":  32.639005,
        "longitude":  -87.293827
    },
    {
        "state":  "AL",
        "name":  "Pickens County",
        "fips":  "01107",
        "latitude":  33.2968,
        "longitude":  -88.096864
    },
    {
        "state":  "AL",
        "name":  "Pike County",
        "fips":  "01109",
        "latitude":  31.798653,
        "longitude":  -85.941608
    },
    {
        "state":  "AL",
        "name":  "Randolph County",
        "fips":  "01111",
        "latitude":  33.296461,
        "longitude":  -85.464064
    },
    {
        "state":  "AL",
        "name":  "Russell County",
        "fips":  "01113",
        "latitude":  32.289811,
        "longitude":  -85.18698
    },
    {
        "state":  "AL",
        "name":  "St. Clair County",
        "fips":  "01115",
        "latitude":  33.719491,
        "longitude":  -86.311327
    },
    {
        "state":  "AL",
        "name":  "Shelby County",
        "fips":  "01117",
        "latitude":  33.266893,
        "longitude":  -86.661007
    },
    {
        "state":  "AL",
        "name":  "Sumter County",
        "fips":  "01119",
        "latitude":  32.597481,
        "longitude":  -88.200057
    },
    {
        "state":  "AL",
        "name":  "Talladega County",
        "fips":  "01121",
        "latitude":  33.369314,
        "longitude":  -86.17593
    },
    {
        "state":  "AL",
        "name":  "Tallapoosa County",
        "fips":  "01123",
        "latitude":  32.863308,
        "longitude":  -85.799618
    },
    {
        "state":  "AL",
        "name":  "Tuscaloosa County",
        "fips":  "01125",
        "latitude":  33.29022,
        "longitude":  -87.522783
    },
    {
        "state":  "AL",
        "name":  "Walker County",
        "fips":  "01127",
        "latitude":  33.791558,
        "longitude":  -87.301094
    },
    {
        "state":  "AL",
        "name":  "Washington County",
        "fips":  "01129",
        "latitude":  31.408503,
        "longitude":  -88.212404
    },
    {
        "state":  "AL",
        "name":  "Wilcox County",
        "fips":  "01131",
        "latitude":  31.990082,
        "longitude":  -87.304935
    },
    {
        "state":  "AL",
        "name":  "Winston County",
        "fips":  "01133",
        "latitude":  34.154566,
        "longitude":  -87.365346
    },
    {
        "state":  "AK",
        "name":  "Aleutians East Borough",
        "fips":  "02013",
        "latitude":  55.245044,
        "longitude":  -161.997477
    },
    {
        "state":  "AK",
        "name":  "Aleutians West Census Area",
        "fips":  "02016",
        "latitude":  51.948964,
        "longitude":  179.621188
    },
    {
        "state":  "AK",
        "name":  "Anchorage Municipality",
        "fips":  "02020",
        "latitude":  61.17425,
        "longitude":  -149.284329
    },
    {
        "state":  "AK",
        "name":  "Bethel Census Area",
        "fips":  "02050",
        "latitude":  60.929141,
        "longitude":  -160.152625
    },
    {
        "state":  "AK",
        "name":  "Bristol Bay Borough",
        "fips":  "02060",
        "latitude":  58.741661,
        "longitude":  -156.966805
    },
    {
        "state":  "AK",
        "name":  "Chugach Census Area",
        "fips":  "02063",
        "latitude":  60.488474,
        "longitude":  -146.203092
    },
    {
        "state":  "AK",
        "name":  "Copper River Census Area",
        "fips":  "02066",
        "latitude":  62.034479,
        "longitude":  -143.922167
    },
    {
        "state":  "AK",
        "name":  "Denali Borough",
        "fips":  "02068",
        "latitude":  63.682039,
        "longitude":  -150.027016
    },
    {
        "state":  "AK",
        "name":  "Dillingham Census Area",
        "fips":  "02070",
        "latitude":  59.543326,
        "longitude":  -158.267123
    },
    {
        "state":  "AK",
        "name":  "Fairbanks North Star Borough",
        "fips":  "02090",
        "latitude":  64.670454,
        "longitude":  -146.496061
    },
    {
        "state":  "AK",
        "name":  "Haines Borough",
        "fips":  "02100",
        "latitude":  59.098404,
        "longitude":  -135.575791
    },
    {
        "state":  "AK",
        "name":  "Hoonah-Angoon Census Area",
        "fips":  "02105",
        "latitude":  58.403336,
        "longitude":  -135.884909
    },
    {
        "state":  "AK",
        "name":  "Juneau City and Borough",
        "fips":  "02110",
        "latitude":  58.37291,
        "longitude":  -134.178445
    },
    {
        "state":  "AK",
        "name":  "Kenai Peninsula Borough",
        "fips":  "02122",
        "latitude":  60.366668,
        "longitude":  -152.322283
    },
    {
        "state":  "AK",
        "name":  "Ketchikan Gateway Borough",
        "fips":  "02130",
        "latitude":  55.449938,
        "longitude":  -131.106685
    },
    {
        "state":  "AK",
        "name":  "Kodiak Island Borough",
        "fips":  "02150",
        "latitude":  57.7044,
        "longitude":  -153.918372
    },
    {
        "state":  "AK",
        "name":  "Kusilvak Census Area",
        "fips":  "02158",
        "latitude":  62.283588,
        "longitude":  -163.190171
    },
    {
        "state":  "AK",
        "name":  "Lake and Peninsula Borough",
        "fips":  "02164",
        "latitude":  58.108507,
        "longitude":  -156.413413
    },
    {
        "state":  "AK",
        "name":  "Matanuska-Susitna Borough",
        "fips":  "02170",
        "latitude":  62.265626,
        "longitude":  -149.503993
    },
    {
        "state":  "AK",
        "name":  "Nome Census Area",
        "fips":  "02180",
        "latitude":  64.783686,
        "longitude":  -164.188912
    },
    {
        "state":  "AK",
        "name":  "North Slope Borough",
        "fips":  "02185",
        "latitude":  69.449343,
        "longitude":  -153.47283
    },
    {
        "state":  "AK",
        "name":  "Northwest Arctic Borough",
        "fips":  "02188",
        "latitude":  67.005066,
        "longitude":  -160.021086
    },
    {
        "state":  "AK",
        "name":  "Petersburg Borough",
        "fips":  "02195",
        "latitude":  57.112458,
        "longitude":  -133.008598
    },
    {
        "state":  "AK",
        "name":  "Prince of Wales-Hyder Census Area",
        "fips":  "02198",
        "latitude":  55.682773,
        "longitude":  -133.162389
    },
    {
        "state":  "AK",
        "name":  "Sitka City and Borough",
        "fips":  "02220",
        "latitude":  57.193204,
        "longitude":  -135.367396
    },
    {
        "state":  "AK",
        "name":  "Skagway Municipality",
        "fips":  "02230",
        "latitude":  59.560379,
        "longitude":  -135.338279
    },
    {
        "state":  "AK",
        "name":  "Southeast Fairbanks Census Area",
        "fips":  "02240",
        "latitude":  63.864997,
        "longitude":  -143.218628
    },
    {
        "state":  "AK",
        "name":  "Wrangell City and Borough",
        "fips":  "02275",
        "latitude":  56.180779,
        "longitude":  -132.026788
    },
    {
        "state":  "AK",
        "name":  "Yakutat City and Borough",
        "fips":  "02282",
        "latitude":  60.017508,
        "longitude":  -140.416847
    },
    {
        "state":  "AK",
        "name":  "Yukon-Koyukuk Census Area",
        "fips":  "02290",
        "latitude":  65.375727,
        "longitude":  -151.57785
    },
    {
        "state":  "AZ",
        "name":  "Apache County",
        "fips":  "04001",
        "latitude":  35.385084,
        "longitude":  -109.490172
    },
    {
        "state":  "AZ",
        "name":  "Cochise County",
        "fips":  "04003",
        "latitude":  31.840129,
        "longitude":  -109.775163
    },
    {
        "state":  "AZ",
        "name":  "Coconino County",
        "fips":  "04005",
        "latitude":  35.829692,
        "longitude":  -111.773728
    },
    {
        "state":  "AZ",
        "name":  "Gila County",
        "fips":  "04007",
        "latitude":  33.789618,
        "longitude":  -110.81187
    },
    {
        "state":  "AZ",
        "name":  "Graham County",
        "fips":  "04009",
        "latitude":  32.931828,
        "longitude":  -109.87831
    },
    {
        "state":  "AZ",
        "name":  "Greenlee County",
        "fips":  "04011",
        "latitude":  33.238872,
        "longitude":  -109.242323
    },
    {
        "state":  "AZ",
        "name":  "La Paz County",
        "fips":  "04012",
        "latitude":  33.72761,
        "longitude":  -114.038806
    },
    {
        "state":  "AZ",
        "name":  "Maricopa County",
        "fips":  "04013",
        "latitude":  33.345176,
        "longitude":  -112.49893
    },
    {
        "state":  "AZ",
        "name":  "Mohave County",
        "fips":  "04015",
        "latitude":  35.717705,
        "longitude":  -113.749689
    },
    {
        "state":  "AZ",
        "name":  "Navajo County",
        "fips":  "04017",
        "latitude":  35.390785,
        "longitude":  -110.321025
    },
    {
        "state":  "AZ",
        "name":  "Pima County",
        "fips":  "04019",
        "latitude":  32.128038,
        "longitude":  -111.783657
    },
    {
        "state":  "AZ",
        "name":  "Pinal County",
        "fips":  "04021",
        "latitude":  32.918521,
        "longitude":  -111.366339
    },
    {
        "state":  "AZ",
        "name":  "Santa Cruz County",
        "fips":  "04023",
        "latitude":  31.525733,
        "longitude":  -110.845228
    },
    {
        "state":  "AZ",
        "name":  "Yavapai County",
        "fips":  "04025",
        "latitude":  34.631071,
        "longitude":  -112.577225
    },
    {
        "state":  "AZ",
        "name":  "Yuma County",
        "fips":  "04027",
        "latitude":  32.773942,
        "longitude":  -113.910905
    },
    {
        "state":  "AR",
        "name":  "Arkansas County",
        "fips":  "05001",
        "latitude":  34.28957,
        "longitude":  -91.376547
    },
    {
        "state":  "AR",
        "name":  "Ashley County",
        "fips":  "05003",
        "latitude":  33.190835,
        "longitude":  -91.772267
    },
    {
        "state":  "AR",
        "name":  "Baxter County",
        "fips":  "05005",
        "latitude":  36.280268,
        "longitude":  -92.329949
    },
    {
        "state":  "AR",
        "name":  "Benton County",
        "fips":  "05007",
        "latitude":  36.337819,
        "longitude":  -94.256298
    },
    {
        "state":  "AR",
        "name":  "Boone County",
        "fips":  "05009",
        "latitude":  36.304299,
        "longitude":  -93.079236
    },
    {
        "state":  "AR",
        "name":  "Bradley County",
        "fips":  "05011",
        "latitude":  33.466549,
        "longitude":  -92.169156
    },
    {
        "state":  "AR",
        "name":  "Calhoun County",
        "fips":  "05013",
        "latitude":  33.56046,
        "longitude":  -92.513879
    },
    {
        "state":  "AR",
        "name":  "Carroll County",
        "fips":  "05015",
        "latitude":  36.33737,
        "longitude":  -93.540972
    },
    {
        "state":  "AR",
        "name":  "Chicot County",
        "fips":  "05017",
        "latitude":  33.267139,
        "longitude":  -91.297158
    },
    {
        "state":  "AR",
        "name":  "Clark County",
        "fips":  "05019",
        "latitude":  34.053316,
        "longitude":  -93.176208
    },
    {
        "state":  "AR",
        "name":  "Clay County",
        "fips":  "05021",
        "latitude":  36.367302,
        "longitude":  -90.418704
    },
    {
        "state":  "AR",
        "name":  "Cleburne County",
        "fips":  "05023",
        "latitude":  35.593628,
        "longitude":  -92.008898
    },
    {
        "state":  "AR",
        "name":  "Cleveland County",
        "fips":  "05025",
        "latitude":  33.893201,
        "longitude":  -92.188714
    },
    {
        "state":  "AR",
        "name":  "Columbia County",
        "fips":  "05027",
        "latitude":  33.223038,
        "longitude":  -93.232843
    },
    {
        "state":  "AR",
        "name":  "Conway County",
        "fips":  "05029",
        "latitude":  35.26569,
        "longitude":  -92.689249
    },
    {
        "state":  "AR",
        "name":  "Craighead County",
        "fips":  "05031",
        "latitude":  35.827729,
        "longitude":  -90.631421
    },
    {
        "state":  "AR",
        "name":  "Crawford County",
        "fips":  "05033",
        "latitude":  35.582959,
        "longitude":  -94.236193
    },
    {
        "state":  "AR",
        "name":  "Crittenden County",
        "fips":  "05035",
        "latitude":  35.197559,
        "longitude":  -90.30512
    },
    {
        "state":  "AR",
        "name":  "Cross County",
        "fips":  "05037",
        "latitude":  35.285692,
        "longitude":  -90.763984
    },
    {
        "state":  "AR",
        "name":  "Dallas County",
        "fips":  "05039",
        "latitude":  33.967823,
        "longitude":  -92.653999
    },
    {
        "state":  "AR",
        "name":  "Desha County",
        "fips":  "05041",
        "latitude":  33.828752,
        "longitude":  -91.244103
    },
    {
        "state":  "AR",
        "name":  "Drew County",
        "fips":  "05043",
        "latitude":  33.587242,
        "longitude":  -91.722778
    },
    {
        "state":  "AR",
        "name":  "Faulkner County",
        "fips":  "05045",
        "latitude":  35.146548,
        "longitude":  -92.336928
    },
    {
        "state":  "AR",
        "name":  "Franklin County",
        "fips":  "05047",
        "latitude":  35.508558,
        "longitude":  -93.887665
    },
    {
        "state":  "AR",
        "name":  "Fulton County",
        "fips":  "05049",
        "latitude":  36.381322,
        "longitude":  -91.819285
    },
    {
        "state":  "AR",
        "name":  "Garland County",
        "fips":  "05051",
        "latitude":  34.578852,
        "longitude":  -93.146932
    },
    {
        "state":  "AR",
        "name":  "Grant County",
        "fips":  "05053",
        "latitude":  34.285568,
        "longitude":  -92.422979
    },
    {
        "state":  "AR",
        "name":  "Greene County",
        "fips":  "05055",
        "latitude":  36.120607,
        "longitude":  -90.566346
    },
    {
        "state":  "AR",
        "name":  "Hempstead County",
        "fips":  "05057",
        "latitude":  33.735953,
        "longitude":  -93.664355
    },
    {
        "state":  "AR",
        "name":  "Hot Spring County",
        "fips":  "05059",
        "latitude":  34.315177,
        "longitude":  -92.944147
    },
    {
        "state":  "AR",
        "name":  "Howard County",
        "fips":  "05061",
        "latitude":  34.083064,
        "longitude":  -93.990931
    },
    {
        "state":  "AR",
        "name":  "Independence County",
        "fips":  "05063",
        "latitude":  35.737499,
        "longitude":  -91.559942
    },
    {
        "state":  "AR",
        "name":  "Izard County",
        "fips":  "05065",
        "latitude":  36.094879,
        "longitude":  -91.913625
    },
    {
        "state":  "AR",
        "name":  "Jackson County",
        "fips":  "05067",
        "latitude":  35.596467,
        "longitude":  -91.223205
    },
    {
        "state":  "AR",
        "name":  "Jefferson County",
        "fips":  "05069",
        "latitude":  34.277239,
        "longitude":  -91.929673
    },
    {
        "state":  "AR",
        "name":  "Johnson County",
        "fips":  "05071",
        "latitude":  35.573359,
        "longitude":  -93.466322
    },
    {
        "state":  "AR",
        "name":  "Lafayette County",
        "fips":  "05073",
        "latitude":  33.240629,
        "longitude":  -93.611514
    },
    {
        "state":  "AR",
        "name":  "Lawrence County",
        "fips":  "05075",
        "latitude":  36.041098,
        "longitude":  -91.101153
    },
    {
        "state":  "AR",
        "name":  "Lee County",
        "fips":  "05077",
        "latitude":  34.779505,
        "longitude":  -90.779717
    },
    {
        "state":  "AR",
        "name":  "Lincoln County",
        "fips":  "05079",
        "latitude":  33.956385,
        "longitude":  -91.742355
    },
    {
        "state":  "AR",
        "name":  "Little River County",
        "fips":  "05081",
        "latitude":  33.701941,
        "longitude":  -94.236287
    },
    {
        "state":  "AR",
        "name":  "Logan County",
        "fips":  "05083",
        "latitude":  35.218654,
        "longitude":  -93.72091
    },
    {
        "state":  "AR",
        "name":  "Lonoke County",
        "fips":  "05085",
        "latitude":  34.755114,
        "longitude":  -91.894132
    },
    {
        "state":  "AR",
        "name":  "Madison County",
        "fips":  "05087",
        "latitude":  36.012545,
        "longitude":  -93.724053
    },
    {
        "state":  "AR",
        "name":  "Marion County",
        "fips":  "05089",
        "latitude":  36.266664,
        "longitude":  -92.678577
    },
    {
        "state":  "AR",
        "name":  "Miller County",
        "fips":  "05091",
        "latitude":  33.305505,
        "longitude":  -93.901502
    },
    {
        "state":  "AR",
        "name":  "Mississippi County",
        "fips":  "05093",
        "latitude":  35.766944,
        "longitude":  -90.052207
    },
    {
        "state":  "AR",
        "name":  "Monroe County",
        "fips":  "05095",
        "latitude":  34.679512,
        "longitude":  -91.20331
    },
    {
        "state":  "AR",
        "name":  "Montgomery County",
        "fips":  "05097",
        "latitude":  34.545656,
        "longitude":  -93.664153
    },
    {
        "state":  "AR",
        "name":  "Nevada County",
        "fips":  "05099",
        "latitude":  33.666699,
        "longitude":  -93.305072
    },
    {
        "state":  "AR",
        "name":  "Newton County",
        "fips":  "05101",
        "latitude":  35.910742,
        "longitude":  -93.215898
    },
    {
        "state":  "AR",
        "name":  "Ouachita County",
        "fips":  "05103",
        "latitude":  33.591168,
        "longitude":  -92.878413
    },
    {
        "state":  "AR",
        "name":  "Perry County",
        "fips":  "05105",
        "latitude":  34.946363,
        "longitude":  -92.926877
    },
    {
        "state":  "AR",
        "name":  "Phillips County",
        "fips":  "05107",
        "latitude":  34.423687,
        "longitude":  -90.855593
    },
    {
        "state":  "AR",
        "name":  "Pike County",
        "fips":  "05109",
        "latitude":  34.158191,
        "longitude":  -93.658659
    },
    {
        "state":  "AR",
        "name":  "Poinsett County",
        "fips":  "05111",
        "latitude":  35.56887,
        "longitude":  -90.681104
    },
    {
        "state":  "AR",
        "name":  "Polk County",
        "fips":  "05113",
        "latitude":  34.49096,
        "longitude":  -94.230894
    },
    {
        "state":  "AR",
        "name":  "Pope County",
        "fips":  "05115",
        "latitude":  35.456557,
        "longitude":  -93.026818
    },
    {
        "state":  "AR",
        "name":  "Prairie County",
        "fips":  "05117",
        "latitude":  34.831116,
        "longitude":  -91.55362
    },
    {
        "state":  "AR",
        "name":  "Pulaski County",
        "fips":  "05119",
        "latitude":  34.770311,
        "longitude":  -92.312996
    },
    {
        "state":  "AR",
        "name":  "Randolph County",
        "fips":  "05121",
        "latitude":  36.341298,
        "longitude":  -91.028441
    },
    {
        "state":  "AR",
        "name":  "St. Francis County",
        "fips":  "05123",
        "latitude":  35.022838,
        "longitude":  -90.751506
    },
    {
        "state":  "AR",
        "name":  "Saline County",
        "fips":  "05125",
        "latitude":  34.648525,
        "longitude":  -92.674463
    },
    {
        "state":  "AR",
        "name":  "Scott County",
        "fips":  "05127",
        "latitude":  34.858869,
        "longitude":  -94.063641
    },
    {
        "state":  "AR",
        "name":  "Searcy County",
        "fips":  "05129",
        "latitude":  35.896387,
        "longitude":  -92.695888
    },
    {
        "state":  "AR",
        "name":  "Sebastian County",
        "fips":  "05131",
        "latitude":  35.196981,
        "longitude":  -94.274989
    },
    {
        "state":  "AR",
        "name":  "Sevier County",
        "fips":  "05133",
        "latitude":  33.994877,
        "longitude":  -94.243279
    },
    {
        "state":  "AR",
        "name":  "Sharp County",
        "fips":  "05135",
        "latitude":  36.173399,
        "longitude":  -91.471069
    },
    {
        "state":  "AR",
        "name":  "Stone County",
        "fips":  "05137",
        "latitude":  35.857001,
        "longitude":  -92.140482
    },
    {
        "state":  "AR",
        "name":  "Union County",
        "fips":  "05139",
        "latitude":  33.168219,
        "longitude":  -92.598145
    },
    {
        "state":  "AR",
        "name":  "Van Buren County",
        "fips":  "05141",
        "latitude":  35.582953,
        "longitude":  -92.515976
    },
    {
        "state":  "AR",
        "name":  "Washington County",
        "fips":  "05143",
        "latitude":  35.978001,
        "longitude":  -94.217269
    },
    {
        "state":  "AR",
        "name":  "White County",
        "fips":  "05145",
        "latitude":  35.255118,
        "longitude":  -91.753034
    },
    {
        "state":  "AR",
        "name":  "Woodruff County",
        "fips":  "05147",
        "latitude":  35.192777,
        "longitude":  -91.244535
    },
    {
        "state":  "AR",
        "name":  "Yell County",
        "fips":  "05149",
        "latitude":  34.997713,
        "longitude":  -93.408303
    },
    {
        "state":  "CA",
        "name":  "Alameda County",
        "fips":  "06001",
        "latitude":  37.647139,
        "longitude":  -121.912488
    },
    {
        "state":  "CA",
        "name":  "Alpine County",
        "fips":  "06003",
        "latitude":  38.621783,
        "longitude":  -119.798352
    },
    {
        "state":  "CA",
        "name":  "Amador County",
        "fips":  "06005",
        "latitude":  38.443549,
        "longitude":  -120.653858
    },
    {
        "state":  "CA",
        "name":  "Butte County",
        "fips":  "06007",
        "latitude":  39.665336,
        "longitude":  -121.603209
    },
    {
        "state":  "CA",
        "name":  "Calaveras County",
        "fips":  "06009",
        "latitude":  38.191068,
        "longitude":  -120.554107
    },
    {
        "state":  "CA",
        "name":  "Colusa County",
        "fips":  "06011",
        "latitude":  39.177739,
        "longitude":  -122.237563
    },
    {
        "state":  "CA",
        "name":  "Contra Costa County",
        "fips":  "06013",
        "latitude":  37.919479,
        "longitude":  -121.951543
    },
    {
        "state":  "CA",
        "name":  "Del Norte County",
        "fips":  "06015",
        "latitude":  41.749903,
        "longitude":  -123.980998
    },
    {
        "state":  "CA",
        "name":  "El Dorado County",
        "fips":  "06017",
        "latitude":  38.785612,
        "longitude":  -120.534225
    },
    {
        "state":  "CA",
        "name":  "Fresno County",
        "fips":  "06019",
        "latitude":  36.761006,
        "longitude":  -119.655019
    },
    {
        "state":  "CA",
        "name":  "Glenn County",
        "fips":  "06021",
        "latitude":  39.602546,
        "longitude":  -122.4017
    },
    {
        "state":  "CA",
        "name":  "Humboldt County",
        "fips":  "06023",
        "latitude":  40.706655,
        "longitude":  -123.926176
    },
    {
        "state":  "CA",
        "name":  "Imperial County",
        "fips":  "06025",
        "latitude":  33.040814,
        "longitude":  -115.3554
    },
    {
        "state":  "CA",
        "name":  "Inyo County",
        "fips":  "06027",
        "latitude":  36.56216,
        "longitude":  -117.404209
    },
    {
        "state":  "CA",
        "name":  "Kern County",
        "fips":  "06029",
        "latitude":  35.346629,
        "longitude":  -118.729506
    },
    {
        "state":  "CA",
        "name":  "Kings County",
        "fips":  "06031",
        "latitude":  36.072478,
        "longitude":  -119.81553
    },
    {
        "state":  "CA",
        "name":  "Lake County",
        "fips":  "06033",
        "latitude":  39.108009,
        "longitude":  -122.745217
    },
    {
        "state":  "CA",
        "name":  "Lassen County",
        "fips":  "06035",
        "latitude":  40.715286999999996,
        "longitude":  -120.621223
    },
    {
        "state":  "CA",
        "name":  "Los Angeles County",
        "fips":  "06037",
        "latitude":  34.196398,
        "longitude":  -118.261862
    },
    {
        "state":  "CA",
        "name":  "Madera County",
        "fips":  "06039",
        "latitude":  37.209821,
        "longitude":  -119.749802
    },
    {
        "state":  "CA",
        "name":  "Marin County",
        "fips":  "06041",
        "latitude":  38.051367,
        "longitude":  -122.746396
    },
    {
        "state":  "CA",
        "name":  "Mariposa County",
        "fips":  "06043",
        "latitude":  37.574343,
        "longitude":  -119.911721
    },
    {
        "state":  "CA",
        "name":  "Mendocino County",
        "fips":  "06045",
        "latitude":  39.432388,
        "longitude":  -123.442881
    },
    {
        "state":  "CA",
        "name":  "Merced County",
        "fips":  "06047",
        "latitude":  37.194806,
        "longitude":  -120.722802
    },
    {
        "state":  "CA",
        "name":  "Modoc County",
        "fips":  "06049",
        "latitude":  41.592918,
        "longitude":  -120.71837
    },
    {
        "state":  "CA",
        "name":  "Mono County",
        "fips":  "06051",
        "latitude":  37.915836,
        "longitude":  -118.875167
    },
    {
        "state":  "CA",
        "name":  "Monterey County",
        "fips":  "06053",
        "latitude":  36.240104,
        "longitude":  -121.315578
    },
    {
        "state":  "CA",
        "name":  "Napa County",
        "fips":  "06055",
        "latitude":  38.5071,
        "longitude":  -122.325904
    },
    {
        "state":  "CA",
        "name":  "Nevada County",
        "fips":  "06057",
        "latitude":  39.297508,
        "longitude":  -120.771343
    },
    {
        "state":  "CA",
        "name":  "Orange County",
        "fips":  "06059",
        "latitude":  33.675687,
        "longitude":  -117.777207
    },
    {
        "state":  "CA",
        "name":  "Placer County",
        "fips":  "06061",
        "latitude":  39.062032,
        "longitude":  -120.722718
    },
    {
        "state":  "CA",
        "name":  "Plumas County",
        "fips":  "06063",
        "latitude":  39.992295,
        "longitude":  -120.824371
    },
    {
        "state":  "CA",
        "name":  "Riverside County",
        "fips":  "06065",
        "latitude":  33.729828,
        "longitude":  -116.002239
    },
    {
        "state":  "CA",
        "name":  "Sacramento County",
        "fips":  "06067",
        "latitude":  38.450136,
        "longitude":  -121.344329
    },
    {
        "state":  "CA",
        "name":  "San Benito County",
        "fips":  "06069",
        "latitude":  36.611651,
        "longitude":  -121.085811
    },
    {
        "state":  "CA",
        "name":  "San Bernardino County",
        "fips":  "06071",
        "latitude":  34.856661,
        "longitude":  -116.181571
    },
    {
        "state":  "CA",
        "name":  "San Diego County",
        "fips":  "06073",
        "latitude":  33.023604,
        "longitude":  -116.776117
    },
    {
        "state":  "CA",
        "name":  "San Francisco County",
        "fips":  "06075",
        "latitude":  37.727239,
        "longitude":  -123.032229
    },
    {
        "state":  "CA",
        "name":  "San Joaquin County",
        "fips":  "06077",
        "latitude":  37.934982,
        "longitude":  -121.272244
    },
    {
        "state":  "CA",
        "name":  "San Luis Obispo County",
        "fips":  "06079",
        "latitude":  35.388189,
        "longitude":  -120.448897
    },
    {
        "state":  "CA",
        "name":  "San Mateo County",
        "fips":  "06081",
        "latitude":  37.414672,
        "longitude":  -122.371546
    },
    {
        "state":  "CA",
        "name":  "Santa Barbara County",
        "fips":  "06083",
        "latitude":  34.536677,
        "longitude":  -120.038364
    },
    {
        "state":  "CA",
        "name":  "Santa Clara County",
        "fips":  "06085",
        "latitude":  37.221614,
        "longitude":  -121.68954
    },
    {
        "state":  "CA",
        "name":  "Santa Cruz County",
        "fips":  "06087",
        "latitude":  37.012347,
        "longitude":  -122.007789
    },
    {
        "state":  "CA",
        "name":  "Shasta County",
        "fips":  "06089",
        "latitude":  40.760514,
        "longitude":  -122.043556
    },
    {
        "state":  "CA",
        "name":  "Sierra County",
        "fips":  "06091",
        "latitude":  39.576925,
        "longitude":  -120.521993
    },
    {
        "state":  "CA",
        "name":  "Siskiyou County",
        "fips":  "06093",
        "latitude":  41.587986,
        "longitude":  -122.533287
    },
    {
        "state":  "CA",
        "name":  "Solano County",
        "fips":  "06095",
        "latitude":  38.267226,
        "longitude":  -121.939594
    },
    {
        "state":  "CA",
        "name":  "Sonoma County",
        "fips":  "06097",
        "latitude":  38.525182,
        "longitude":  -122.92611
    },
    {
        "state":  "CA",
        "name":  "Stanislaus County",
        "fips":  "06099",
        "latitude":  37.562316,
        "longitude":  -121.002831
    },
    {
        "state":  "CA",
        "name":  "Sutter County",
        "fips":  "06101",
        "latitude":  39.03619,
        "longitude":  -121.70394
    },
    {
        "state":  "CA",
        "name":  "Tehama County",
        "fips":  "06103",
        "latitude":  40.126157,
        "longitude":  -122.232274
    },
    {
        "state":  "CA",
        "name":  "Trinity County",
        "fips":  "06105",
        "latitude":  40.647858,
        "longitude":  -123.114666
    },
    {
        "state":  "CA",
        "name":  "Tulare County",
        "fips":  "06107",
        "latitude":  36.228834,
        "longitude":  -118.781055
    },
    {
        "state":  "CA",
        "name":  "Tuolumne County",
        "fips":  "06109",
        "latitude":  38.021434,
        "longitude":  -119.964733
    },
    {
        "state":  "CA",
        "name":  "Ventura County",
        "fips":  "06111",
        "latitude":  34.358748,
        "longitude":  -119.133145
    },
    {
        "state":  "CA",
        "name":  "Yolo County",
        "fips":  "06113",
        "latitude":  38.679609,
        "longitude":  -121.90275
    },
    {
        "state":  "CA",
        "name":  "Yuba County",
        "fips":  "06115",
        "latitude":  39.27013,
        "longitude":  -121.344259
    },
    {
        "state":  "CO",
        "name":  "Adams County",
        "fips":  "08001",
        "latitude":  39.874325,
        "longitude":  -104.331872
    },
    {
        "state":  "CO",
        "name":  "Alamosa County",
        "fips":  "08003",
        "latitude":  37.568442,
        "longitude":  -105.788041
    },
    {
        "state":  "CO",
        "name":  "Arapahoe County",
        "fips":  "08005",
        "latitude":  39.644554,
        "longitude":  -104.331706
    },
    {
        "state":  "CO",
        "name":  "Archuleta County",
        "fips":  "08007",
        "latitude":  37.202395,
        "longitude":  -107.050863
    },
    {
        "state":  "CO",
        "name":  "Baca County",
        "fips":  "08009",
        "latitude":  37.30978,
        "longitude":  -102.543741
    },
    {
        "state":  "CO",
        "name":  "Bent County",
        "fips":  "08011",
        "latitude":  37.931891,
        "longitude":  -103.077584
    },
    {
        "state":  "CO",
        "name":  "Boulder County",
        "fips":  "08013",
        "latitude":  40.094966,
        "longitude":  -105.397702
    },
    {
        "state":  "CO",
        "name":  "Broomfield County",
        "fips":  "08014",
        "latitude":  39.953593,
        "longitude":  -105.050787
    },
    {
        "state":  "CO",
        "name":  "Chaffee County",
        "fips":  "08015",
        "latitude":  38.734599,
        "longitude":  -106.300025
    },
    {
        "state":  "CO",
        "name":  "Cheyenne County",
        "fips":  "08017",
        "latitude":  38.835646,
        "longitude":  -102.601791
    },
    {
        "state":  "CO",
        "name":  "Clear Creek County",
        "fips":  "08019",
        "latitude":  39.689403,
        "longitude":  -105.670783
    },
    {
        "state":  "CO",
        "name":  "Conejos County",
        "fips":  "08021",
        "latitude":  37.213406,
        "longitude":  -106.176447
    },
    {
        "state":  "CO",
        "name":  "Costilla County",
        "fips":  "08023",
        "latitude":  37.277547,
        "longitude":  -105.42894
    },
    {
        "state":  "CO",
        "name":  "Crowley County",
        "fips":  "08025",
        "latitude":  38.30618,
        "longitude":  -103.772736
    },
    {
        "state":  "CO",
        "name":  "Custer County",
        "fips":  "08027",
        "latitude":  38.101996,
        "longitude":  -105.373512
    },
    {
        "state":  "CO",
        "name":  "Delta County",
        "fips":  "08029",
        "latitude":  38.861423,
        "longitude":  -107.865043
    },
    {
        "state":  "CO",
        "name":  "Denver County",
        "fips":  "08031",
        "latitude":  39.76185,
        "longitude":  -104.881105
    },
    {
        "state":  "CO",
        "name":  "Dolores County",
        "fips":  "08033",
        "latitude":  37.733823,
        "longitude":  -108.506219
    },
    {
        "state":  "CO",
        "name":  "Douglas County",
        "fips":  "08035",
        "latitude":  39.325414,
        "longitude":  -104.925987
    },
    {
        "state":  "CO",
        "name":  "Eagle County",
        "fips":  "08037",
        "latitude":  39.626992,
        "longitude":  -106.695169
    },
    {
        "state":  "CO",
        "name":  "Elbert County",
        "fips":  "08039",
        "latitude":  39.315157,
        "longitude":  -104.114076
    },
    {
        "state":  "CO",
        "name":  "El Paso County",
        "fips":  "08041",
        "latitude":  38.827383,
        "longitude":  -104.527472
    },
    {
        "state":  "CO",
        "name":  "Fremont County",
        "fips":  "08043",
        "latitude":  38.45517,
        "longitude":  -105.424958
    },
    {
        "state":  "CO",
        "name":  "Garfield County",
        "fips":  "08045",
        "latitude":  39.599352,
        "longitude":  -107.90978
    },
    {
        "state":  "CO",
        "name":  "Gilpin County",
        "fips":  "08047",
        "latitude":  39.861156,
        "longitude":  -105.528878
    },
    {
        "state":  "CO",
        "name":  "Grand County",
        "fips":  "08049",
        "latitude":  40.113065,
        "longitude":  -106.110837
    },
    {
        "state":  "CO",
        "name":  "Gunnison County",
        "fips":  "08051",
        "latitude":  38.670499,
        "longitude":  -107.05688
    },
    {
        "state":  "CO",
        "name":  "Hinsdale County",
        "fips":  "08053",
        "latitude":  37.811519,
        "longitude":  -107.383974
    },
    {
        "state":  "CO",
        "name":  "Huerfano County",
        "fips":  "08055",
        "latitude":  37.687815,
        "longitude":  -104.959928
    },
    {
        "state":  "CO",
        "name":  "Jackson County",
        "fips":  "08057",
        "latitude":  40.663432,
        "longitude":  -106.329248
    },
    {
        "state":  "CO",
        "name":  "Jefferson County",
        "fips":  "08059",
        "latitude":  39.579511,
        "longitude":  -105.245462
    },
    {
        "state":  "CO",
        "name":  "Kiowa County",
        "fips":  "08061",
        "latitude":  38.387663,
        "longitude":  -102.756849
    },
    {
        "state":  "CO",
        "name":  "Kit Carson County",
        "fips":  "08063",
        "latitude":  39.30534,
        "longitude":  -102.603023
    },
    {
        "state":  "CO",
        "name":  "Lake County",
        "fips":  "08065",
        "latitude":  39.205341,
        "longitude":  -106.350079
    },
    {
        "state":  "CO",
        "name":  "La Plata County",
        "fips":  "08067",
        "latitude":  37.287367,
        "longitude":  -107.839718
    },
    {
        "state":  "CO",
        "name":  "Larimer County",
        "fips":  "08069",
        "latitude":  40.658093,
        "longitude":  -105.486764
    },
    {
        "state":  "CO",
        "name":  "Las Animas County",
        "fips":  "08071",
        "latitude":  37.318831,
        "longitude":  -104.04411
    },
    {
        "state":  "CO",
        "name":  "Lincoln County",
        "fips":  "08073",
        "latitude":  38.99374,
        "longitude":  -103.507555
    },
    {
        "state":  "CO",
        "name":  "Logan County",
        "fips":  "08075",
        "latitude":  40.728091,
        "longitude":  -103.090464
    },
    {
        "state":  "CO",
        "name":  "Mesa County",
        "fips":  "08077",
        "latitude":  39.019524,
        "longitude":  -108.460571
    },
    {
        "state":  "CO",
        "name":  "Mineral County",
        "fips":  "08079",
        "latitude":  37.549067,
        "longitude":  -107.003236
    },
    {
        "state":  "CO",
        "name":  "Moffat County",
        "fips":  "08081",
        "latitude":  40.610864,
        "longitude":  -108.217154
    },
    {
        "state":  "CO",
        "name":  "Montezuma County",
        "fips":  "08083",
        "latitude":  37.338025,
        "longitude":  -108.595786
    },
    {
        "state":  "CO",
        "name":  "Montrose County",
        "fips":  "08085",
        "latitude":  38.407507,
        "longitude":  -108.266282
    },
    {
        "state":  "CO",
        "name":  "Morgan County",
        "fips":  "08087",
        "latitude":  40.263159,
        "longitude":  -103.81221
    },
    {
        "state":  "CO",
        "name":  "Otero County",
        "fips":  "08089",
        "latitude":  37.88417,
        "longitude":  -103.72126
    },
    {
        "state":  "CO",
        "name":  "Ouray County",
        "fips":  "08091",
        "latitude":  38.154731,
        "longitude":  -107.78848
    },
    {
        "state":  "CO",
        "name":  "Park County",
        "fips":  "08093",
        "latitude":  39.118914,
        "longitude":  -105.717648
    },
    {
        "state":  "CO",
        "name":  "Phillips County",
        "fips":  "08095",
        "latitude":  40.594712,
        "longitude":  -102.345105
    },
    {
        "state":  "CO",
        "name":  "Pitkin County",
        "fips":  "08097",
        "latitude":  39.217541,
        "longitude":  -106.916162
    },
    {
        "state":  "CO",
        "name":  "Prowers County",
        "fips":  "08099",
        "latitude":  37.958181,
        "longitude":  -102.392161
    },
    {
        "state":  "CO",
        "name":  "Pueblo County",
        "fips":  "08101",
        "latitude":  38.162765,
        "longitude":  -104.484668
    },
    {
        "state":  "CO",
        "name":  "Rio Blanco County",
        "fips":  "08103",
        "latitude":  39.972622,
        "longitude":  -108.200716
    },
    {
        "state":  "CO",
        "name":  "Rio Grande County",
        "fips":  "08105",
        "latitude":  37.485853,
        "longitude":  -106.453128
    },
    {
        "state":  "CO",
        "name":  "Routt County",
        "fips":  "08107",
        "latitude":  40.483664,
        "longitude":  -106.987702
    },
    {
        "state":  "CO",
        "name":  "Saguache County",
        "fips":  "08109",
        "latitude":  38.031651,
        "longitude":  -106.234666
    },
    {
        "state":  "CO",
        "name":  "San Juan County",
        "fips":  "08111",
        "latitude":  37.781049,
        "longitude":  -107.670257
    },
    {
        "state":  "CO",
        "name":  "San Miguel County",
        "fips":  "08113",
        "latitude":  38.009319,
        "longitude":  -108.427263
    },
    {
        "state":  "CO",
        "name":  "Sedgwick County",
        "fips":  "08115",
        "latitude":  40.871568,
        "longitude":  -102.355358
    },
    {
        "state":  "CO",
        "name":  "Summit County",
        "fips":  "08117",
        "latitude":  39.621023,
        "longitude":  -106.137555
    },
    {
        "state":  "CO",
        "name":  "Teller County",
        "fips":  "08119",
        "latitude":  38.869976,
        "longitude":  -105.187365
    },
    {
        "state":  "CO",
        "name":  "Washington County",
        "fips":  "08121",
        "latitude":  39.96579,
        "longitude":  -103.209744
    },
    {
        "state":  "CO",
        "name":  "Weld County",
        "fips":  "08123",
        "latitude":  40.555961,
        "longitude":  -104.383666
    },
    {
        "state":  "CO",
        "name":  "Yuma County",
        "fips":  "08125",
        "latitude":  40.00077,
        "longitude":  -102.421649
    },
    {
        "state":  "CT",
        "name":  "Capitol Planning Region",
        "fips":  "09110",
        "latitude":  41.81697,
        "longitude":  -72.575886
    },
    {
        "state":  "CT",
        "name":  "Greater Bridgeport Planning Region",
        "fips":  "09120",
        "latitude":  41.184558,
        "longitude":  -73.209401
    },
    {
        "state":  "CT",
        "name":  "Lower Connecticut River Valley Planning Region",
        "fips":  "09130",
        "latitude":  41.420307,
        "longitude":  -72.493525
    },
    {
        "state":  "CT",
        "name":  "Naugatuck Valley Planning Region",
        "fips":  "09140",
        "latitude":  41.518931,
        "longitude":  -73.087906
    },
    {
        "state":  "CT",
        "name":  "Northeastern Connecticut Planning Region",
        "fips":  "09150",
        "latitude":  41.842375,
        "longitude":  -71.972655
    },
    {
        "state":  "CT",
        "name":  "Northwest Hills Planning Region",
        "fips":  "09160",
        "latitude":  41.854809,
        "longitude":  -73.221494
    },
    {
        "state":  "CT",
        "name":  "South Central Connecticut Planning Region",
        "fips":  "09170",
        "latitude":  41.290167,
        "longitude":  -72.837024
    },
    {
        "state":  "CT",
        "name":  "Southeastern Connecticut Planning Region",
        "fips":  "09180",
        "latitude":  41.484769,
        "longitude":  -72.101666
    },
    {
        "state":  "CT",
        "name":  "Western Connecticut Planning Region",
        "fips":  "09190",
        "latitude":  41.279055,
        "longitude":  -73.44655
    },
    {
        "state":  "DE",
        "name":  "Kent County",
        "fips":  "10001",
        "latitude":  39.097088,
        "longitude":  -75.502982
    },
    {
        "state":  "DE",
        "name":  "New Castle County",
        "fips":  "10003",
        "latitude":  39.575915,
        "longitude":  -75.644132
    },
    {
        "state":  "DE",
        "name":  "Sussex County",
        "fips":  "10005",
        "latitude":  38.673227,
        "longitude":  -75.337024
    },
    {
        "state":  "DC",
        "name":  "District of Columbia",
        "fips":  "11001",
        "latitude":  38.904247,
        "longitude":  -77.016517
    },
    {
        "state":  "FL",
        "name":  "Alachua County",
        "fips":  "12001",
        "latitude":  29.67574,
        "longitude":  -82.357221
    },
    {
        "state":  "FL",
        "name":  "Baker County",
        "fips":  "12003",
        "latitude":  30.324442,
        "longitude":  -82.302284
    },
    {
        "state":  "FL",
        "name":  "Bay County",
        "fips":  "12005",
        "latitude":  30.15914,
        "longitude":  -85.534395
    },
    {
        "state":  "FL",
        "name":  "Bradford County",
        "fips":  "12007",
        "latitude":  29.952386,
        "longitude":  -82.166698
    },
    {
        "state":  "FL",
        "name":  "Brevard County",
        "fips":  "12009",
        "latitude":  28.298311,
        "longitude":  -80.700333
    },
    {
        "state":  "FL",
        "name":  "Broward County",
        "fips":  "12011",
        "latitude":  26.193535,
        "longitude":  -80.476683
    },
    {
        "state":  "FL",
        "name":  "Calhoun County",
        "fips":  "12013",
        "latitude":  30.388801,
        "longitude":  -85.197915
    },
    {
        "state":  "FL",
        "name":  "Charlotte County",
        "fips":  "12015",
        "latitude":  26.906396,
        "longitude":  -82.003657
    },
    {
        "state":  "FL",
        "name":  "Citrus County",
        "fips":  "12017",
        "latitude":  28.850292,
        "longitude":  -82.595552
    },
    {
        "state":  "FL",
        "name":  "Clay County",
        "fips":  "12019",
        "latitude":  29.986584,
        "longitude":  -81.865036
    },
    {
        "state":  "FL",
        "name":  "Collier County",
        "fips":  "12021",
        "latitude":  26.118786,
        "longitude":  -81.400955
    },
    {
        "state":  "FL",
        "name":  "Columbia County",
        "fips":  "12023",
        "latitude":  30.221651,
        "longitude":  -82.623371
    },
    {
        "state":  "FL",
        "name":  "DeSoto County",
        "fips":  "12027",
        "latitude":  27.190581,
        "longitude":  -81.806253
    },
    {
        "state":  "FL",
        "name":  "Dixie County",
        "fips":  "12029",
        "latitude":  29.552675,
        "longitude":  -83.236232
    },
    {
        "state":  "FL",
        "name":  "Duval County",
        "fips":  "12031",
        "latitude":  30.335245,
        "longitude":  -81.648113
    },
    {
        "state":  "FL",
        "name":  "Escambia County",
        "fips":  "12033",
        "latitude":  30.529998,
        "longitude":  -87.320322
    },
    {
        "state":  "FL",
        "name":  "Flagler County",
        "fips":  "12035",
        "latitude":  29.474891,
        "longitude":  -81.286253
    },
    {
        "state":  "FL",
        "name":  "Franklin County",
        "fips":  "12037",
        "latitude":  29.677794,
        "longitude":  -84.815213
    },
    {
        "state":  "FL",
        "name":  "Gadsden County",
        "fips":  "12039",
        "latitude":  30.578687,
        "longitude":  -84.612607
    },
    {
        "state":  "FL",
        "name":  "Gilchrist County",
        "fips":  "12041",
        "latitude":  29.723456,
        "longitude":  -82.795801
    },
    {
        "state":  "FL",
        "name":  "Glades County",
        "fips":  "12043",
        "latitude":  26.95481,
        "longitude":  -81.19082
    },
    {
        "state":  "FL",
        "name":  "Gulf County",
        "fips":  "12045",
        "latitude":  29.859238,
        "longitude":  -85.272013
    },
    {
        "state":  "FL",
        "name":  "Hamilton County",
        "fips":  "12047",
        "latitude":  30.498438,
        "longitude":  -82.951116
    },
    {
        "state":  "FL",
        "name":  "Hardee County",
        "fips":  "12049",
        "latitude":  27.492846,
        "longitude":  -81.82158
    },
    {
        "state":  "FL",
        "name":  "Hendry County",
        "fips":  "12051",
        "latitude":  26.539967,
        "longitude":  -81.152114
    },
    {
        "state":  "FL",
        "name":  "Hernando County",
        "fips":  "12053",
        "latitude":  28.555995,
        "longitude":  -82.525969
    },
    {
        "state":  "FL",
        "name":  "Highlands County",
        "fips":  "12055",
        "latitude":  27.34108,
        "longitude":  -81.342353
    },
    {
        "state":  "FL",
        "name":  "Hillsborough County",
        "fips":  "12057",
        "latitude":  27.893154,
        "longitude":  -82.379991
    },
    {
        "state":  "FL",
        "name":  "Holmes County",
        "fips":  "12059",
        "latitude":  30.862007,
        "longitude":  -85.815939
    },
    {
        "state":  "FL",
        "name":  "Indian River County",
        "fips":  "12061",
        "latitude":  27.700528,
        "longitude":  -80.574789
    },
    {
        "state":  "FL",
        "name":  "Jackson County",
        "fips":  "12063",
        "latitude":  30.789249,
        "longitude":  -85.208814
    },
    {
        "state":  "FL",
        "name":  "Jefferson County",
        "fips":  "12065",
        "latitude":  30.396898,
        "longitude":  -83.921761
    },
    {
        "state":  "FL",
        "name":  "Lafayette County",
        "fips":  "12067",
        "latitude":  29.990066,
        "longitude":  -83.17851
    },
    {
        "state":  "FL",
        "name":  "Lake County",
        "fips":  "12069",
        "latitude":  28.764113,
        "longitude":  -81.712282
    },
    {
        "state":  "FL",
        "name":  "Lee County",
        "fips":  "12071",
        "latitude":  26.563273,
        "longitude":  -81.984182
    },
    {
        "state":  "FL",
        "name":  "Leon County",
        "fips":  "12073",
        "latitude":  30.45931,
        "longitude":  -84.2778
    },
    {
        "state":  "FL",
        "name":  "Levy County",
        "fips":  "12075",
        "latitude":  29.271854,
        "longitude":  -82.831233
    },
    {
        "state":  "FL",
        "name":  "Liberty County",
        "fips":  "12077",
        "latitude":  30.259849,
        "longitude":  -84.86858
    },
    {
        "state":  "FL",
        "name":  "Madison County",
        "fips":  "12079",
        "latitude":  30.447233,
        "longitude":  -83.470416
    },
    {
        "state":  "FL",
        "name":  "Manatee County",
        "fips":  "12081",
        "latitude":  27.475556,
        "longitude":  -82.393144
    },
    {
        "state":  "FL",
        "name":  "Marion County",
        "fips":  "12083",
        "latitude":  29.202805,
        "longitude":  -82.0431
    },
    {
        "state":  "FL",
        "name":  "Martin County",
        "fips":  "12085",
        "latitude":  27.083604,
        "longitude":  -80.398201
    },
    {
        "state":  "FL",
        "name":  "Miami-Dade County",
        "fips":  "12086",
        "latitude":  25.616009,
        "longitude":  -80.50375
    },
    {
        "state":  "FL",
        "name":  "Monroe County",
        "fips":  "12087",
        "latitude":  25.58612,
        "longitude":  -81.022603
    },
    {
        "state":  "FL",
        "name":  "Nassau County",
        "fips":  "12089",
        "latitude":  30.605963,
        "longitude":  -81.765087
    },
    {
        "state":  "FL",
        "name":  "Okaloosa County",
        "fips":  "12091",
        "latitude":  30.614325,
        "longitude":  -86.59108
    },
    {
        "state":  "FL",
        "name":  "Okeechobee County",
        "fips":  "12093",
        "latitude":  27.385592,
        "longitude":  -80.887388
    },
    {
        "state":  "FL",
        "name":  "Orange County",
        "fips":  "12095",
        "latitude":  28.514391,
        "longitude":  -81.323284
    },
    {
        "state":  "FL",
        "name":  "Osceola County",
        "fips":  "12097",
        "latitude":  28.059027,
        "longitude":  -81.139312
    },
    {
        "state":  "FL",
        "name":  "Palm Beach County",
        "fips":  "12099",
        "latitude":  26.649126,
        "longitude":  -80.448354
    },
    {
        "state":  "FL",
        "name":  "Pasco County",
        "fips":  "12101",
        "latitude":  28.309823,
        "longitude":  -82.511006
    },
    {
        "state":  "FL",
        "name":  "Pinellas County",
        "fips":  "12103",
        "latitude":  27.905342,
        "longitude":  -82.798066
    },
    {
        "state":  "FL",
        "name":  "Polk County",
        "fips":  "12105",
        "latitude":  27.953685,
        "longitude":  -81.693493
    },
    {
        "state":  "FL",
        "name":  "Putnam County",
        "fips":  "12107",
        "latitude":  29.593896,
        "longitude":  -81.732039
    },
    {
        "state":  "FL",
        "name":  "St. Johns County",
        "fips":  "12109",
        "latitude":  29.890487,
        "longitude":  -81.40004
    },
    {
        "state":  "FL",
        "name":  "St. Lucie County",
        "fips":  "12111",
        "latitude":  27.379814,
        "longitude":  -80.443536
    },
    {
        "state":  "FL",
        "name":  "Santa Rosa County",
        "fips":  "12113",
        "latitude":  30.675348,
        "longitude":  -87.018919
    },
    {
        "state":  "FL",
        "name":  "Sarasota County",
        "fips":  "12115",
        "latitude":  27.225327,
        "longitude":  -82.423714
    },
    {
        "state":  "FL",
        "name":  "Seminole County",
        "fips":  "12117",
        "latitude":  28.690065,
        "longitude":  -81.131975
    },
    {
        "state":  "FL",
        "name":  "Sumter County",
        "fips":  "12119",
        "latitude":  28.713976,
        "longitude":  -82.069684
    },
    {
        "state":  "FL",
        "name":  "Suwannee County",
        "fips":  "12121",
        "latitude":  30.189244,
        "longitude":  -82.992754
    },
    {
        "state":  "FL",
        "name":  "Taylor County",
        "fips":  "12123",
        "latitude":  29.967146,
        "longitude":  -83.639573
    },
    {
        "state":  "FL",
        "name":  "Union County",
        "fips":  "12125",
        "latitude":  30.05428,
        "longitude":  -82.366918
    },
    {
        "state":  "FL",
        "name":  "Volusia County",
        "fips":  "12127",
        "latitude":  29.057769,
        "longitude":  -81.161792
    },
    {
        "state":  "FL",
        "name":  "Wakulla County",
        "fips":  "12129",
        "latitude":  30.091335,
        "longitude":  -84.359111
    },
    {
        "state":  "FL",
        "name":  "Walton County",
        "fips":  "12131",
        "latitude":  30.571247,
        "longitude":  -86.162798
    },
    {
        "state":  "FL",
        "name":  "Washington County",
        "fips":  "12133",
        "latitude":  30.602102,
        "longitude":  -85.655805
    },
    {
        "state":  "GA",
        "name":  "Appling County",
        "fips":  "13001",
        "latitude":  31.739712,
        "longitude":  -82.290103
    },
    {
        "state":  "GA",
        "name":  "Atkinson County",
        "fips":  "13003",
        "latitude":  31.296806,
        "longitude":  -82.878151
    },
    {
        "state":  "GA",
        "name":  "Bacon County",
        "fips":  "13005",
        "latitude":  31.55021,
        "longitude":  -82.451433
    },
    {
        "state":  "GA",
        "name":  "Baker County",
        "fips":  "13007",
        "latitude":  31.31958,
        "longitude":  -84.454881
    },
    {
        "state":  "GA",
        "name":  "Baldwin County",
        "fips":  "13009",
        "latitude":  33.05949,
        "longitude":  -83.255457
    },
    {
        "state":  "GA",
        "name":  "Banks County",
        "fips":  "13011",
        "latitude":  34.351922,
        "longitude":  -83.498441
    },
    {
        "state":  "GA",
        "name":  "Barrow County",
        "fips":  "13013",
        "latitude":  33.992009,
        "longitude":  -83.712303
    },
    {
        "state":  "GA",
        "name":  "Bartow County",
        "fips":  "13015",
        "latitude":  34.240917,
        "longitude":  -84.838188
    },
    {
        "state":  "GA",
        "name":  "Ben Hill County",
        "fips":  "13017",
        "latitude":  31.740772,
        "longitude":  -83.147197
    },
    {
        "state":  "GA",
        "name":  "Berrien County",
        "fips":  "13019",
        "latitude":  31.288652,
        "longitude":  -83.22787
    },
    {
        "state":  "GA",
        "name":  "Bibb County",
        "fips":  "13021",
        "latitude":  32.808845,
        "longitude":  -83.694194
    },
    {
        "state":  "GA",
        "name":  "Bleckley County",
        "fips":  "13023",
        "latitude":  32.435403,
        "longitude":  -83.331717
    },
    {
        "state":  "GA",
        "name":  "Brantley County",
        "fips":  "13025",
        "latitude":  31.197334,
        "longitude":  -81.982978
    },
    {
        "state":  "GA",
        "name":  "Brooks County",
        "fips":  "13027",
        "latitude":  30.822934,
        "longitude":  -83.581905
    },
    {
        "state":  "GA",
        "name":  "Bryan County",
        "fips":  "13029",
        "latitude":  32.017969,
        "longitude":  -81.438543
    },
    {
        "state":  "GA",
        "name":  "Bulloch County",
        "fips":  "13031",
        "latitude":  32.394481,
        "longitude":  -81.741618
    },
    {
        "state":  "GA",
        "name":  "Burke County",
        "fips":  "13033",
        "latitude":  33.060181,
        "longitude":  -82.000164
    },
    {
        "state":  "GA",
        "name":  "Butts County",
        "fips":  "13035",
        "latitude":  33.290355,
        "longitude":  -83.958221
    },
    {
        "state":  "GA",
        "name":  "Calhoun County",
        "fips":  "13037",
        "latitude":  31.521279,
        "longitude":  -84.62629
    },
    {
        "state":  "GA",
        "name":  "Camden County",
        "fips":  "13039",
        "latitude":  30.913358,
        "longitude":  -81.642019
    },
    {
        "state":  "GA",
        "name":  "Candler County",
        "fips":  "13043",
        "latitude":  32.40395,
        "longitude":  -82.071266
    },
    {
        "state":  "GA",
        "name":  "Carroll County",
        "fips":  "13045",
        "latitude":  33.582237,
        "longitude":  -85.080527
    },
    {
        "state":  "GA",
        "name":  "Catoosa County",
        "fips":  "13047",
        "latitude":  34.900212,
        "longitude":  -85.139385
    },
    {
        "state":  "GA",
        "name":  "Charlton County",
        "fips":  "13049",
        "latitude":  30.779904,
        "longitude":  -82.139644
    },
    {
        "state":  "GA",
        "name":  "Chatham County",
        "fips":  "13051",
        "latitude":  31.980404,
        "longitude":  -81.085184
    },
    {
        "state":  "GA",
        "name":  "Chattahoochee County",
        "fips":  "13053",
        "latitude":  32.347445,
        "longitude":  -84.788021
    },
    {
        "state":  "GA",
        "name":  "Chattooga County",
        "fips":  "13055",
        "latitude":  34.474178,
        "longitude":  -85.345289
    },
    {
        "state":  "GA",
        "name":  "Cherokee County",
        "fips":  "13057",
        "latitude":  34.244317,
        "longitude":  -84.475057
    },
    {
        "state":  "GA",
        "name":  "Clarke County",
        "fips":  "13059",
        "latitude":  33.952185,
        "longitude":  -83.367152
    },
    {
        "state":  "GA",
        "name":  "Clay County",
        "fips":  "13061",
        "latitude":  31.619831,
        "longitude":  -84.992583
    },
    {
        "state":  "GA",
        "name":  "Clayton County",
        "fips":  "13063",
        "latitude":  33.551603,
        "longitude":  -84.412868
    },
    {
        "state":  "GA",
        "name":  "Clinch County",
        "fips":  "13065",
        "latitude":  30.917653,
        "longitude":  -82.702614
    },
    {
        "state":  "GA",
        "name":  "Cobb County",
        "fips":  "13067",
        "latitude":  33.939926,
        "longitude":  -84.57411
    },
    {
        "state":  "GA",
        "name":  "Coffee County",
        "fips":  "13069",
        "latitude":  31.549245,
        "longitude":  -82.84494
    },
    {
        "state":  "GA",
        "name":  "Colquitt County",
        "fips":  "13071",
        "latitude":  31.189707,
        "longitude":  -83.769773
    },
    {
        "state":  "GA",
        "name":  "Columbia County",
        "fips":  "13073",
        "latitude":  33.552075,
        "longitude":  -82.249608
    },
    {
        "state":  "GA",
        "name":  "Cook County",
        "fips":  "13075",
        "latitude":  31.152516,
        "longitude":  -83.429445
    },
    {
        "state":  "GA",
        "name":  "Coweta County",
        "fips":  "13077",
        "latitude":  33.352897,
        "longitude":  -84.762138
    },
    {
        "state":  "GA",
        "name":  "Crawford County",
        "fips":  "13079",
        "latitude":  32.709428,
        "longitude":  -83.979187
    },
    {
        "state":  "GA",
        "name":  "Crisp County",
        "fips":  "13081",
        "latitude":  31.920268,
        "longitude":  -83.75653
    },
    {
        "state":  "GA",
        "name":  "Dade County",
        "fips":  "13083",
        "latitude":  34.852424,
        "longitude":  -85.506201
    },
    {
        "state":  "GA",
        "name":  "Dawson County",
        "fips":  "13085",
        "latitude":  34.442608,
        "longitude":  -84.173261
    },
    {
        "state":  "GA",
        "name":  "Decatur County",
        "fips":  "13087",
        "latitude":  30.880643,
        "longitude":  -84.58389
    },
    {
        "state":  "GA",
        "name":  "DeKalb County",
        "fips":  "13089",
        "latitude":  33.770661,
        "longitude":  -84.226343
    },
    {
        "state":  "GA",
        "name":  "Dodge County",
        "fips":  "13091",
        "latitude":  32.164369,
        "longitude":  -83.167866
    },
    {
        "state":  "GA",
        "name":  "Dooly County",
        "fips":  "13093",
        "latitude":  32.151995,
        "longitude":  -83.807167
    },
    {
        "state":  "GA",
        "name":  "Dougherty County",
        "fips":  "13095",
        "latitude":  31.532588,
        "longitude":  -84.20904
    },
    {
        "state":  "GA",
        "name":  "Douglas County",
        "fips":  "13097",
        "latitude":  33.701242,
        "longitude":  -84.767314
    },
    {
        "state":  "GA",
        "name":  "Early County",
        "fips":  "13099",
        "latitude":  31.324191,
        "longitude":  -84.906723
    },
    {
        "state":  "GA",
        "name":  "Echols County",
        "fips":  "13101",
        "latitude":  30.714008,
        "longitude":  -82.897376
    },
    {
        "state":  "GA",
        "name":  "Effingham County",
        "fips":  "13103",
        "latitude":  32.361688,
        "longitude":  -81.343355
    },
    {
        "state":  "GA",
        "name":  "Elbert County",
        "fips":  "13105",
        "latitude":  34.116415,
        "longitude":  -82.841892
    },
    {
        "state":  "GA",
        "name":  "Emanuel County",
        "fips":  "13107",
        "latitude":  32.5911,
        "longitude":  -82.299763
    },
    {
        "state":  "GA",
        "name":  "Evans County",
        "fips":  "13109",
        "latitude":  32.153083,
        "longitude":  -81.890153
    },
    {
        "state":  "GA",
        "name":  "Fannin County",
        "fips":  "13111",
        "latitude":  34.866543,
        "longitude":  -84.317331
    },
    {
        "state":  "GA",
        "name":  "Fayette County",
        "fips":  "13113",
        "latitude":  33.412717,
        "longitude":  -84.493941
    },
    {
        "state":  "GA",
        "name":  "Floyd County",
        "fips":  "13115",
        "latitude":  34.26369,
        "longitude":  -85.213685
    },
    {
        "state":  "GA",
        "name":  "Forsyth County",
        "fips":  "13117",
        "latitude":  34.225143,
        "longitude":  -84.127408
    },
    {
        "state":  "GA",
        "name":  "Franklin County",
        "fips":  "13119",
        "latitude":  34.375266,
        "longitude":  -83.227532
    },
    {
        "state":  "GA",
        "name":  "Fulton County",
        "fips":  "13121",
        "latitude":  33.790034,
        "longitude":  -84.468182
    },
    {
        "state":  "GA",
        "name":  "Gilmer County",
        "fips":  "13123",
        "latitude":  34.690523,
        "longitude":  -84.454811
    },
    {
        "state":  "GA",
        "name":  "Glascock County",
        "fips":  "13125",
        "latitude":  33.227491,
        "longitude":  -82.606913
    },
    {
        "state":  "GA",
        "name":  "Glynn County",
        "fips":  "13127",
        "latitude":  31.21271,
        "longitude":  -81.49645
    },
    {
        "state":  "GA",
        "name":  "Gordon County",
        "fips":  "13129",
        "latitude":  34.509667,
        "longitude":  -84.873862
    },
    {
        "state":  "GA",
        "name":  "Grady County",
        "fips":  "13131",
        "latitude":  30.8759,
        "longitude":  -84.244965
    },
    {
        "state":  "GA",
        "name":  "Greene County",
        "fips":  "13133",
        "latitude":  33.576704,
        "longitude":  -83.166625
    },
    {
        "state":  "GA",
        "name":  "Gwinnett County",
        "fips":  "13135",
        "latitude":  33.958756,
        "longitude":  -84.025735
    },
    {
        "state":  "GA",
        "name":  "Habersham County",
        "fips":  "13137",
        "latitude":  34.634392,
        "longitude":  -83.525875
    },
    {
        "state":  "GA",
        "name":  "Hall County",
        "fips":  "13139",
        "latitude":  34.317569,
        "longitude":  -83.8185
    },
    {
        "state":  "GA",
        "name":  "Hancock County",
        "fips":  "13141",
        "latitude":  33.26922,
        "longitude":  -83.000465
    },
    {
        "state":  "GA",
        "name":  "Haralson County",
        "fips":  "13143",
        "latitude":  33.795165,
        "longitude":  -85.220063
    },
    {
        "state":  "GA",
        "name":  "Harris County",
        "fips":  "13145",
        "latitude":  32.731549,
        "longitude":  -84.912432
    },
    {
        "state":  "GA",
        "name":  "Hart County",
        "fips":  "13147",
        "latitude":  34.348733,
        "longitude":  -82.96329
    },
    {
        "state":  "GA",
        "name":  "Heard County",
        "fips":  "13149",
        "latitude":  33.291347,
        "longitude":  -85.137886
    },
    {
        "state":  "GA",
        "name":  "Henry County",
        "fips":  "13151",
        "latitude":  33.452947,
        "longitude":  -84.154021
    },
    {
        "state":  "GA",
        "name":  "Houston County",
        "fips":  "13153",
        "latitude":  32.458147,
        "longitude":  -83.662309
    },
    {
        "state":  "GA",
        "name":  "Irwin County",
        "fips":  "13155",
        "latitude":  31.604306,
        "longitude":  -83.277037
    },
    {
        "state":  "GA",
        "name":  "Jackson County",
        "fips":  "13157",
        "latitude":  34.130905,
        "longitude":  -83.562557
    },
    {
        "state":  "GA",
        "name":  "Jasper County",
        "fips":  "13159",
        "latitude":  33.316981,
        "longitude":  -83.689151
    },
    {
        "state":  "GA",
        "name":  "Jeff Davis County",
        "fips":  "13161",
        "latitude":  31.811615,
        "longitude":  -82.636825
    },
    {
        "state":  "GA",
        "name":  "Jefferson County",
        "fips":  "13163",
        "latitude":  33.058176,
        "longitude":  -82.420004
    },
    {
        "state":  "GA",
        "name":  "Jenkins County",
        "fips":  "13165",
        "latitude":  32.794563,
        "longitude":  -81.971524
    },
    {
        "state":  "GA",
        "name":  "Johnson County",
        "fips":  "13167",
        "latitude":  32.694584,
        "longitude":  -82.66397
    },
    {
        "state":  "GA",
        "name":  "Jones County",
        "fips":  "13169",
        "latitude":  33.021664,
        "longitude":  -83.562196
    },
    {
        "state":  "GA",
        "name":  "Lamar County",
        "fips":  "13171",
        "latitude":  33.07444,
        "longitude":  -84.146689
    },
    {
        "state":  "GA",
        "name":  "Lanier County",
        "fips":  "13173",
        "latitude":  31.038197,
        "longitude":  -83.063164
    },
    {
        "state":  "GA",
        "name":  "Laurens County",
        "fips":  "13175",
        "latitude":  32.39322,
        "longitude":  -82.926317
    },
    {
        "state":  "GA",
        "name":  "Lee County",
        "fips":  "13177",
        "latitude":  31.818419,
        "longitude":  -84.146681
    },
    {
        "state":  "GA",
        "name":  "Liberty County",
        "fips":  "13179",
        "latitude":  31.807458,
        "longitude":  -81.457871
    },
    {
        "state":  "GA",
        "name":  "Lincoln County",
        "fips":  "13181",
        "latitude":  33.792151,
        "longitude":  -82.448299
    },
    {
        "state":  "GA",
        "name":  "Long County",
        "fips":  "13183",
        "latitude":  31.749563,
        "longitude":  -81.74287
    },
    {
        "state":  "GA",
        "name":  "Lowndes County",
        "fips":  "13185",
        "latitude":  30.833145,
        "longitude":  -83.268995
    },
    {
        "state":  "GA",
        "name":  "Lumpkin County",
        "fips":  "13187",
        "latitude":  34.56814,
        "longitude":  -83.998925
    },
    {
        "state":  "GA",
        "name":  "McDuffie County",
        "fips":  "13189",
        "latitude":  33.480613,
        "longitude":  -82.479533
    },
    {
        "state":  "GA",
        "name":  "McIntosh County",
        "fips":  "13191",
        "latitude":  31.485629,
        "longitude":  -81.372141
    },
    {
        "state":  "GA",
        "name":  "Macon County",
        "fips":  "13193",
        "latitude":  32.362686,
        "longitude":  -84.051231
    },
    {
        "state":  "GA",
        "name":  "Madison County",
        "fips":  "13195",
        "latitude":  34.12748,
        "longitude":  -83.208653
    },
    {
        "state":  "GA",
        "name":  "Marion County",
        "fips":  "13197",
        "latitude":  32.359312,
        "longitude":  -84.528735
    },
    {
        "state":  "GA",
        "name":  "Meriwether County",
        "fips":  "13199",
        "latitude":  33.029267,
        "longitude":  -84.667058
    },
    {
        "state":  "GA",
        "name":  "Miller County",
        "fips":  "13201",
        "latitude":  31.162931,
        "longitude":  -84.730398
    },
    {
        "state":  "GA",
        "name":  "Mitchell County",
        "fips":  "13205",
        "latitude":  31.228997,
        "longitude":  -84.192038
    },
    {
        "state":  "GA",
        "name":  "Monroe County",
        "fips":  "13207",
        "latitude":  33.018784,
        "longitude":  -83.921837
    },
    {
        "state":  "GA",
        "name":  "Montgomery County",
        "fips":  "13209",
        "latitude":  32.172108,
        "longitude":  -82.533349
    },
    {
        "state":  "GA",
        "name":  "Morgan County",
        "fips":  "13211",
        "latitude":  33.598696,
        "longitude":  -83.499435
    },
    {
        "state":  "GA",
        "name":  "Murray County",
        "fips":  "13213",
        "latitude":  34.797097,
        "longitude":  -84.73799
    },
    {
        "state":  "GA",
        "name":  "Muscogee County",
        "fips":  "13215",
        "latitude":  32.510197,
        "longitude":  -84.874946
    },
    {
        "state":  "GA",
        "name":  "Newton County",
        "fips":  "13217",
        "latitude":  33.552751,
        "longitude":  -83.85136
    },
    {
        "state":  "GA",
        "name":  "Oconee County",
        "fips":  "13219",
        "latitude":  33.834125,
        "longitude":  -83.437728
    },
    {
        "state":  "GA",
        "name":  "Oglethorpe County",
        "fips":  "13221",
        "latitude":  33.866806,
        "longitude":  -83.074081
    },
    {
        "state":  "GA",
        "name":  "Paulding County",
        "fips":  "13223",
        "latitude":  33.92103,
        "longitude":  -84.867169
    },
    {
        "state":  "GA",
        "name":  "Peach County",
        "fips":  "13225",
        "latitude":  32.571324,
        "longitude":  -83.831978
    },
    {
        "state":  "GA",
        "name":  "Pickens County",
        "fips":  "13227",
        "latitude":  34.456746,
        "longitude":  -84.490351
    },
    {
        "state":  "GA",
        "name":  "Pierce County",
        "fips":  "13229",
        "latitude":  31.353998,
        "longitude":  -82.21037
    },
    {
        "state":  "GA",
        "name":  "Pike County",
        "fips":  "13231",
        "latitude":  33.081149,
        "longitude":  -84.389462
    },
    {
        "state":  "GA",
        "name":  "Polk County",
        "fips":  "13233",
        "latitude":  33.996015,
        "longitude":  -85.188338
    },
    {
        "state":  "GA",
        "name":  "Pulaski County",
        "fips":  "13235",
        "latitude":  32.238803,
        "longitude":  -83.481845
    },
    {
        "state":  "GA",
        "name":  "Putnam County",
        "fips":  "13237",
        "latitude":  33.32106,
        "longitude":  -83.37179
    },
    {
        "state":  "GA",
        "name":  "Quitman County",
        "fips":  "13239",
        "latitude":  31.862938,
        "longitude":  -85.004798
    },
    {
        "state":  "GA",
        "name":  "Rabun County",
        "fips":  "13241",
        "latitude":  34.883934,
        "longitude":  -83.40487
    },
    {
        "state":  "GA",
        "name":  "Randolph County",
        "fips":  "13243",
        "latitude":  31.762651,
        "longitude":  -84.752311
    },
    {
        "state":  "GA",
        "name":  "Richmond County",
        "fips":  "13245",
        "latitude":  33.361486,
        "longitude":  -82.074998
    },
    {
        "state":  "GA",
        "name":  "Rockdale County",
        "fips":  "13247",
        "latitude":  33.652081,
        "longitude":  -84.02637
    },
    {
        "state":  "GA",
        "name":  "Schley County",
        "fips":  "13249",
        "latitude":  32.263444,
        "longitude":  -84.322708
    },
    {
        "state":  "GA",
        "name":  "Screven County",
        "fips":  "13251",
        "latitude":  32.744751,
        "longitude":  -81.617585
    },
    {
        "state":  "GA",
        "name":  "Seminole County",
        "fips":  "13253",
        "latitude":  30.93396,
        "longitude":  -84.867685
    },
    {
        "state":  "GA",
        "name":  "Spalding County",
        "fips":  "13255",
        "latitude":  33.262348,
        "longitude":  -84.284905
    },
    {
        "state":  "GA",
        "name":  "Stephens County",
        "fips":  "13257",
        "latitude":  34.553582,
        "longitude":  -83.290588
    },
    {
        "state":  "GA",
        "name":  "Stewart County",
        "fips":  "13259",
        "latitude":  32.073225,
        "longitude":  -84.834912
    },
    {
        "state":  "GA",
        "name":  "Sumter County",
        "fips":  "13261",
        "latitude":  32.042266,
        "longitude":  -84.204294
    },
    {
        "state":  "GA",
        "name":  "Talbot County",
        "fips":  "13263",
        "latitude":  32.704603,
        "longitude":  -84.530029
    },
    {
        "state":  "GA",
        "name":  "Taliaferro County",
        "fips":  "13265",
        "latitude":  33.559319,
        "longitude":  -82.875272
    },
    {
        "state":  "GA",
        "name":  "Tattnall County",
        "fips":  "13267",
        "latitude":  32.043768,
        "longitude":  -82.059208
    },
    {
        "state":  "GA",
        "name":  "Taylor County",
        "fips":  "13269",
        "latitude":  32.554667,
        "longitude":  -84.251426
    },
    {
        "state":  "GA",
        "name":  "Telfair County",
        "fips":  "13271",
        "latitude":  31.913641,
        "longitude":  -82.931063
    },
    {
        "state":  "GA",
        "name":  "Terrell County",
        "fips":  "13273",
        "latitude":  31.777191,
        "longitude":  -84.439446
    },
    {
        "state":  "GA",
        "name":  "Thomas County",
        "fips":  "13275",
        "latitude":  30.864619,
        "longitude":  -83.919815
    },
    {
        "state":  "GA",
        "name":  "Tift County",
        "fips":  "13277",
        "latitude":  31.457003,
        "longitude":  -83.525931
    },
    {
        "state":  "GA",
        "name":  "Toombs County",
        "fips":  "13279",
        "latitude":  32.117753,
        "longitude":  -82.330597
    },
    {
        "state":  "GA",
        "name":  "Towns County",
        "fips":  "13281",
        "latitude":  34.902529,
        "longitude":  -83.732264
    },
    {
        "state":  "GA",
        "name":  "Treutlen County",
        "fips":  "13283",
        "latitude":  32.409586,
        "longitude":  -82.570882
    },
    {
        "state":  "GA",
        "name":  "Troup County",
        "fips":  "13285",
        "latitude":  33.034482,
        "longitude":  -85.02836
    },
    {
        "state":  "GA",
        "name":  "Turner County",
        "fips":  "13287",
        "latitude":  31.7248,
        "longitude":  -83.620319
    },
    {
        "state":  "GA",
        "name":  "Twiggs County",
        "fips":  "13289",
        "latitude":  32.665847,
        "longitude":  -83.425879
    },
    {
        "state":  "GA",
        "name":  "Union County",
        "fips":  "13291",
        "latitude":  34.833333,
        "longitude":  -83.989257
    },
    {
        "state":  "GA",
        "name":  "Upson County",
        "fips":  "13293",
        "latitude":  32.881837,
        "longitude":  -84.292283
    },
    {
        "state":  "GA",
        "name":  "Walker County",
        "fips":  "13295",
        "latitude":  34.735802,
        "longitude":  -85.305456
    },
    {
        "state":  "GA",
        "name":  "Walton County",
        "fips":  "13297",
        "latitude":  33.783887,
        "longitude":  -83.731829
    },
    {
        "state":  "GA",
        "name":  "Ware County",
        "fips":  "13299",
        "latitude":  31.050881,
        "longitude":  -82.421507
    },
    {
        "state":  "GA",
        "name":  "Warren County",
        "fips":  "13301",
        "latitude":  33.419169,
        "longitude":  -82.688012
    },
    {
        "state":  "GA",
        "name":  "Washington County",
        "fips":  "13303",
        "latitude":  32.971843,
        "longitude":  -82.798112
    },
    {
        "state":  "GA",
        "name":  "Wayne County",
        "fips":  "13305",
        "latitude":  31.547845,
        "longitude":  -81.912376
    },
    {
        "state":  "GA",
        "name":  "Webster County",
        "fips":  "13307",
        "latitude":  32.046691,
        "longitude":  -84.553828
    },
    {
        "state":  "GA",
        "name":  "Wheeler County",
        "fips":  "13309",
        "latitude":  32.105258,
        "longitude":  -82.733849
    },
    {
        "state":  "GA",
        "name":  "White County",
        "fips":  "13311",
        "latitude":  34.644182,
        "longitude":  -83.743
    },
    {
        "state":  "GA",
        "name":  "Whitfield County",
        "fips":  "13313",
        "latitude":  34.801726,
        "longitude":  -84.968541
    },
    {
        "state":  "GA",
        "name":  "Wilcox County",
        "fips":  "13315",
        "latitude":  31.96272,
        "longitude":  -83.438259
    },
    {
        "state":  "GA",
        "name":  "Wilkes County",
        "fips":  "13317",
        "latitude":  33.779031,
        "longitude":  -82.747921
    },
    {
        "state":  "GA",
        "name":  "Wilkinson County",
        "fips":  "13319",
        "latitude":  32.804266,
        "longitude":  -83.175512
    },
    {
        "state":  "GA",
        "name":  "Worth County",
        "fips":  "13321",
        "latitude":  31.551773,
        "longitude":  -83.84996
    },
    {
        "state":  "HI",
        "name":  "Hawaii County",
        "fips":  "15001",
        "latitude":  19.597764,
        "longitude":  -155.502443
    },
    {
        "state":  "HI",
        "name":  "Honolulu County",
        "fips":  "15003",
        "latitude":  21.461365,
        "longitude":  -158.201974
    },
    {
        "state":  "HI",
        "name":  "Kalawao County",
        "fips":  "15005",
        "latitude":  21.218764,
        "longitude":  -156.97401
    },
    {
        "state":  "HI",
        "name":  "Kauai County",
        "fips":  "15007",
        "latitude":  22.012038,
        "longitude":  -159.705965
    },
    {
        "state":  "HI",
        "name":  "Maui County",
        "fips":  "15009",
        "latitude":  20.855931,
        "longitude":  -156.60155
    },
    {
        "state":  "ID",
        "name":  "Ada County",
        "fips":  "16001",
        "latitude":  43.451477,
        "longitude":  -116.244376
    },
    {
        "state":  "ID",
        "name":  "Adams County",
        "fips":  "16003",
        "latitude":  44.877004,
        "longitude":  -116.461624
    },
    {
        "state":  "ID",
        "name":  "Bannock County",
        "fips":  "16005",
        "latitude":  42.692921,
        "longitude":  -112.228982
    },
    {
        "state":  "ID",
        "name":  "Bear Lake County",
        "fips":  "16007",
        "latitude":  42.285892,
        "longitude":  -111.327517
    },
    {
        "state":  "ID",
        "name":  "Benewah County",
        "fips":  "16009",
        "latitude":  47.218451,
        "longitude":  -116.633541
    },
    {
        "state":  "ID",
        "name":  "Bingham County",
        "fips":  "16011",
        "latitude":  43.216357,
        "longitude":  -112.399206
    },
    {
        "state":  "ID",
        "name":  "Blaine County",
        "fips":  "16013",
        "latitude":  43.394192,
        "longitude":  -113.955371
    },
    {
        "state":  "ID",
        "name":  "Boise County",
        "fips":  "16015",
        "latitude":  43.987275,
        "longitude":  -115.71511
    },
    {
        "state":  "ID",
        "name":  "Bonner County",
        "fips":  "16017",
        "latitude":  48.324634,
        "longitude":  -116.62745
    },
    {
        "state":  "ID",
        "name":  "Bonneville County",
        "fips":  "16019",
        "latitude":  43.395171,
        "longitude":  -111.621878
    },
    {
        "state":  "ID",
        "name":  "Boundary County",
        "fips":  "16021",
        "latitude":  48.773131,
        "longitude":  -116.524668
    },
    {
        "state":  "ID",
        "name":  "Butte County",
        "fips":  "16023",
        "latitude":  43.685101,
        "longitude":  -113.177631
    },
    {
        "state":  "ID",
        "name":  "Camas County",
        "fips":  "16025",
        "latitude":  43.502552,
        "longitude":  -114.772135
    },
    {
        "state":  "ID",
        "name":  "Canyon County",
        "fips":  "16027",
        "latitude":  43.625796,
        "longitude":  -116.709058
    },
    {
        "state":  "ID",
        "name":  "Caribou County",
        "fips":  "16029",
        "latitude":  42.786072,
        "longitude":  -111.544273
    },
    {
        "state":  "ID",
        "name":  "Cassia County",
        "fips":  "16031",
        "latitude":  42.282313,
        "longitude":  -113.626328
    },
    {
        "state":  "ID",
        "name":  "Clark County",
        "fips":  "16033",
        "latitude":  44.290218,
        "longitude":  -112.354613
    },
    {
        "state":  "ID",
        "name":  "Clearwater County",
        "fips":  "16035",
        "latitude":  46.67257,
        "longitude":  -115.6535
    },
    {
        "state":  "ID",
        "name":  "Custer County",
        "fips":  "16037",
        "latitude":  44.273351,
        "longitude":  -114.252267
    },
    {
        "state":  "ID",
        "name":  "Elmore County",
        "fips":  "16039",
        "latitude":  43.394698,
        "longitude":  -115.471205
    },
    {
        "state":  "ID",
        "name":  "Franklin County",
        "fips":  "16041",
        "latitude":  42.173609,
        "longitude":  -111.822965
    },
    {
        "state":  "ID",
        "name":  "Fremont County",
        "fips":  "16043",
        "latitude":  44.218091,
        "longitude":  -111.484429
    },
    {
        "state":  "ID",
        "name":  "Gem County",
        "fips":  "16045",
        "latitude":  44.061473,
        "longitude":  -116.398784
    },
    {
        "state":  "ID",
        "name":  "Gooding County",
        "fips":  "16047",
        "latitude":  42.973185,
        "longitude":  -114.82142
    },
    {
        "state":  "ID",
        "name":  "Idaho County",
        "fips":  "16049",
        "latitude":  45.849644,
        "longitude":  -115.467337
    },
    {
        "state":  "ID",
        "name":  "Jefferson County",
        "fips":  "16051",
        "latitude":  43.796965,
        "longitude":  -112.318588
    },
    {
        "state":  "ID",
        "name":  "Jerome County",
        "fips":  "16053",
        "latitude":  42.691395,
        "longitude":  -114.262086
    },
    {
        "state":  "ID",
        "name":  "Kootenai County",
        "fips":  "16055",
        "latitude":  47.675957,
        "longitude":  -116.695919
    },
    {
        "state":  "ID",
        "name":  "Latah County",
        "fips":  "16057",
        "latitude":  46.81892,
        "longitude":  -116.730974
    },
    {
        "state":  "ID",
        "name":  "Lemhi County",
        "fips":  "16059",
        "latitude":  44.928506,
        "longitude":  -113.887042
    },
    {
        "state":  "ID",
        "name":  "Lewis County",
        "fips":  "16061",
        "latitude":  46.236328,
        "longitude":  -116.42376
    },
    {
        "state":  "ID",
        "name":  "Lincoln County",
        "fips":  "16063",
        "latitude":  42.990782,
        "longitude":  -114.153089
    },
    {
        "state":  "ID",
        "name":  "Madison County",
        "fips":  "16065",
        "latitude":  43.788614,
        "longitude":  -111.656993
    },
    {
        "state":  "ID",
        "name":  "Minidoka County",
        "fips":  "16067",
        "latitude":  42.857211,
        "longitude":  -113.63984
    },
    {
        "state":  "ID",
        "name":  "Nez Perce County",
        "fips":  "16069",
        "latitude":  46.333791,
        "longitude":  -116.760909
    },
    {
        "state":  "ID",
        "name":  "Oneida County",
        "fips":  "16071",
        "latitude":  42.183895,
        "longitude":  -112.520449
    },
    {
        "state":  "ID",
        "name":  "Owyhee County",
        "fips":  "16073",
        "latitude":  42.572851,
        "longitude":  -116.18969
    },
    {
        "state":  "ID",
        "name":  "Payette County",
        "fips":  "16075",
        "latitude":  44.00243,
        "longitude":  -116.750238
    },
    {
        "state":  "ID",
        "name":  "Power County",
        "fips":  "16077",
        "latitude":  42.694126,
        "longitude":  -112.844407
    },
    {
        "state":  "ID",
        "name":  "Shoshone County",
        "fips":  "16079",
        "latitude":  47.347694,
        "longitude":  -115.885092
    },
    {
        "state":  "ID",
        "name":  "Teton County",
        "fips":  "16081",
        "latitude":  43.760994,
        "longitude":  -111.211765
    },
    {
        "state":  "ID",
        "name":  "Twin Falls County",
        "fips":  "16083",
        "latitude":  42.352309,
        "longitude":  -114.665639
    },
    {
        "state":  "ID",
        "name":  "Valley County",
        "fips":  "16085",
        "latitude":  44.85596,
        "longitude":  -115.618061
    },
    {
        "state":  "ID",
        "name":  "Washington County",
        "fips":  "16087",
        "latitude":  44.448223,
        "longitude":  -116.797792
    },
    {
        "state":  "IL",
        "name":  "Adams County",
        "fips":  "17001",
        "latitude":  39.986052,
        "longitude":  -91.194961
    },
    {
        "state":  "IL",
        "name":  "Alexander County",
        "fips":  "17003",
        "latitude":  37.183658,
        "longitude":  -89.349516
    },
    {
        "state":  "IL",
        "name":  "Bond County",
        "fips":  "17005",
        "latitude":  38.885924,
        "longitude":  -89.436592
    },
    {
        "state":  "IL",
        "name":  "Boone County",
        "fips":  "17007",
        "latitude":  42.318983,
        "longitude":  -88.824295
    },
    {
        "state":  "IL",
        "name":  "Brown County",
        "fips":  "17009",
        "latitude":  39.962069,
        "longitude":  -90.750309
    },
    {
        "state":  "IL",
        "name":  "Bureau County",
        "fips":  "17011",
        "latitude":  41.401304,
        "longitude":  -89.528377
    },
    {
        "state":  "IL",
        "name":  "Calhoun County",
        "fips":  "17013",
        "latitude":  39.164262,
        "longitude":  -90.666295
    },
    {
        "state":  "IL",
        "name":  "Carroll County",
        "fips":  "17015",
        "latitude":  42.0709,
        "longitude":  -89.924189
    },
    {
        "state":  "IL",
        "name":  "Cass County",
        "fips":  "17017",
        "latitude":  39.969202,
        "longitude":  -90.245704
    },
    {
        "state":  "IL",
        "name":  "Champaign County",
        "fips":  "17019",
        "latitude":  40.138985,
        "longitude":  -88.196975
    },
    {
        "state":  "IL",
        "name":  "Christian County",
        "fips":  "17021",
        "latitude":  39.545524,
        "longitude":  -89.279593
    },
    {
        "state":  "IL",
        "name":  "Clark County",
        "fips":  "17023",
        "latitude":  39.332334,
        "longitude":  -87.791683
    },
    {
        "state":  "IL",
        "name":  "Clay County",
        "fips":  "17025",
        "latitude":  38.746819,
        "longitude":  -88.482325
    },